{"nodes":[{"label":"정동진역(경유)","x":-296.8539733886719,"y":-592.9353637695312,"id":"113","attributes":{"Out-Degree":"0","In-Degree":"1","Modularity Class":"6","Degree":"1","Eigenvector Centrality":"0.09538268512188769","lat":"37.69183","long":"129.03251"},"color":"rgb(0,196,255)","size":18.5},{"label":"전주역","x":67.57292175292969,"y":439.7867126464844,"id":"6","attributes":{"Out-Degree":"12","In-Degree":"9","Modularity Class":"1","Degree":"21","Eigenvector Centrality":"0.7333055079393653","lat":"35.85005","long":"127.16236"},"color":"rgb(223,137,255)","size":18.5},{"label":"태화강역","x":-403.23077392578125,"y":-373.51763916015625,"id":"49","attributes":{"Out-Degree":"2","In-Degree":"2","Modularity Class":"5","Degree":"4","Eigenvector Centrality":"0.11506637327871387","lat":"35.53881","long":"129.35401"},"color":"rgb(255,136,5)","size":18.5},{"label":"태화강역(경유)","x":-306.7193908691406,"y":-105.18194580078125,"id":"56","attributes":{"Out-Degree":"1","In-Degree":"1","Modularity Class":"5","Degree":"2","Eigenvector Centrality":"0.18698105584677166","lat":"35.53881","long":"129.35401"},"color":"rgb(255,136,5)","size":18.5},{"label":"마산역","x":-103.57713317871094,"y":-97.17945098876953,"id":"40","attributes":{"Out-Degree":"3","In-Degree":"2","Modularity Class":"6","Degree":"5","Eigenvector Centrality":"0.35147790790252104","lat":"35.23636","long":"128.57673"},"color":"rgb(0,196,255)","size":18.5},{"label":"하양역(경유)","x":-242.5838165283203,"y":-954.7030639648438,"id":"61","attributes":{"Out-Degree":"1","In-Degree":"1","Modularity Class":"6","Degree":"2","Eigenvector Centrality":"0.019683688156826175","lat":"35.90959","long":"128.81844"},"color":"rgb(0,196,255)","size":18.5},{"label":"가평역(경유)","x":570.0509643554688,"y":-223.3760986328125,"id":"104","attributes":{"Out-Degree":"2","In-Degree":"1","Modularity Class":"1","Degree":"3","Eigenvector Centrality":"0.09765344591390779","lat":"37.81388","long":"127.51143"},"color":"rgb(223,137,255)","size":18.5},{"label":"원주역","x":-416.709716796875,"y":-645.23388671875,"id":"124","attributes":{"Out-Degree":"0","In-Degree":"1","Modularity Class":"6","Degree":"1","Eigenvector Centrality":"0.09538268512188769","lat":"37.31543","long":"127.92199"},"color":"rgb(0,196,255)","size":18.5},{"label":"동백산역","x":184.6052703857422,"y":-1108.527587890625,"id":"10","attributes":{"Out-Degree":"3","In-Degree":"2","Modularity Class":"2","Degree":"5","Eigenvector Centrality":"0.11607521515004296","lat":"37.1549","long":"129.03451"},"color":"rgb(115,192,0)","size":18.5},{"label":"용산역","x":236.60421752929688,"y":391.1217956542969,"id":"29","attributes":{"Out-Degree":"10","In-Degree":"7","Modularity Class":"1","Degree":"17","Eigenvector Centrality":"0.5426839861407778","lat":"37.53019","long":"126.96514"},"color":"rgb(223,137,255)","size":18.5},{"label":"제천역(경유)","x":305.51605224609375,"y":-917.1751098632812,"id":"9","attributes":{"Out-Degree":"6","In-Degree":"8","Modularity Class":"2","Degree":"14","Eigenvector Centrality":"0.4615096059587789","lat":"37.12707","long":"128.20596"},"color":"rgb(115,192,0)","size":18.5},{"label":"평창역","x":312.0670166015625,"y":-1212.5208740234375,"id":"96","attributes":{"Out-Degree":"1","In-Degree":"1","Modularity Class":"2","Degree":"2","Eigenvector Centrality":"0.06322826640127212","lat":"37.56196","long":"128.43003"},"color":"rgb(115,192,0)","size":18.5},{"label":"영주역(경유)","x":128.2261199951172,"y":-844.9239501953125,"id":"23","attributes":{"Out-Degree":"3","In-Degree":"2","Modularity Class":"2","Degree":"5","Eigenvector Centrality":"0.16841113753020145","lat":"36.81094","long":"128.62558"},"color":"rgb(115,192,0)","size":18.5},{"label":"조치원역","x":392.3082580566406,"y":-532.33642578125,"id":"26","attributes":{"Out-Degree":"1","In-Degree":"1","Modularity Class":"2","Degree":"2","Eigenvector Centrality":"0.13080145925400885","lat":"36.601","long":"127.29719"},"color":"rgb(115,192,0)","size":18.5},{"label":"여수엑스포역","x":115.61678314208984,"y":383.5155944824219,"id":"32","attributes":{"Out-Degree":"6","In-Degree":"8","Modularity Class":"1","Degree":"14","Eigenvector Centrality":"0.6752679315397627","lat":"34.75494","long":"127.74913"},"color":"rgb(223,137,255)","size":18.5},{"label":"경주역","x":-218.7257843017578,"y":-528.697509765625,"id":"50","attributes":{"Out-Degree":"8","In-Degree":"10","Modularity Class":"6","Degree":"18","Eigenvector Centrality":"0.4888533644076428","lat":"35.79827","long":"129.13896"},"color":"rgb(0,196,255)","size":18.5},{"label":"정동진역","x":133.62530517578125,"y":-984.1888427734375,"id":"11","attributes":{"Out-Degree":"8","In-Degree":"7","Modularity Class":"2","Degree":"15","Eigenvector Centrality":"0.43502833150899173","lat":"37.69183","long":"129.03251"},"color":"rgb(115,192,0)","size":18.5},{"label":"분천역","x":420.4272155761719,"y":-668.5928344726562,"id":"118","attributes":{"Out-Degree":"0","In-Degree":"1","Modularity Class":"2","Degree":"1","Eigenvector Centrality":"0.078416789813483","lat":"36.9326","long":"129.05858"},"color":"rgb(115,192,0)","size":18.5},{"label":"부산역(경유)","x":-329.314453125,"y":-647.028564453125,"id":"66","attributes":{"Out-Degree":"2","In-Degree":"1","Modularity Class":"6","Degree":"3","Eigenvector Centrality":"0.0018698105584677167","lat":"35.11578","long":"129.04265"},"color":"rgb(0,196,255)","size":18.5},{"label":"백마고지역","x":25781.25,"y":20288.55859375,"id":"68","attributes":{"Out-Degree":"1","In-Degree":"1","Modularity Class":"3","Degree":"2","Eigenvector Centrality":"0.0018698105584677167","lat":"38.25753","long":"127.16603"},"color":"rgb(0,189,148)","size":18.5},{"label":"남원역","x":-197.42453002929688,"y":542.4863891601562,"id":"65","attributes":{"Out-Degree":"1","In-Degree":"2","Modularity Class":"1","Degree":"3","Eigenvector Centrality":"0.29529831130975825","lat":"35.41341","long":"127.38225"},"color":"rgb(223,137,255)","size":18.5},{"label":"강구역","x":347.9768371582031,"y":-425.6202087402344,"id":"117","attributes":{"Out-Degree":"0","In-Degree":"1","Modularity Class":"6","Degree":"1","Eigenvector Centrality":"0.03482087003104591","lat":"36.352491","long":"129.372299"},"color":"rgb(0,196,255)","size":18.5},{"label":"영동역","x":-600.5293579101562,"y":-308.1730651855469,"id":"95","attributes":{"Out-Degree":"1","In-Degree":"0","Modularity Class":"6","Degree":"1","Eigenvector Centrality":"0.0","lat":"36.17267","long":"127.78581"},"color":"rgb(0,196,255)","size":18.5},{"label":"천안역(경유)","x":-2.601776361465454,"y":81.63227081298828,"id":"25","attributes":{"Out-Degree":"1","In-Degree":"1","Modularity Class":"1","Degree":"2","Eigenvector Centrality":"0.10799683757643591","lat":"36.81028","long":"127.14684"},"color":"rgb(223,137,255)","size":18.5},{"label":"대구역","x":-412.8373718261719,"y":-549.1539306640625,"id":"92","attributes":{"Out-Degree":"1","In-Degree":"5","Modularity Class":"6","Degree":"6","Eigenvector Centrality":"0.22509659016603292","lat":"35.876","long":"128.59605"},"color":"rgb(0,196,255)","size":18.5},{"label":"논산역","x":294.05340576171875,"y":512.6724853515625,"id":"74","attributes":{"Out-Degree":"1","In-Degree":"2","Modularity Class":"1","Degree":"3","Eigenvector Centrality":"0.2098504665271912","lat":"36.20691","long":"127.09285"},"color":"rgb(223,137,255)","size":18.5},{"label":"거제역","x":-1290.14111328125,"y":-730.0468139648438,"id":"89","attributes":{"Out-Degree":"1","In-Degree":"0","Modularity Class":"6","Degree":"1","Eigenvector Centrality":"0.0","lat":"35.18969","long":"129.07451"},"color":"rgb(0,196,255)","size":18.5},{"label":"광주역(경유)","x":97.20477294921875,"y":972.2034301757812,"id":"83","attributes":{"Out-Degree":"1","In-Degree":"1","Modularity Class":"1","Degree":"2","Eigenvector Centrality":"0.02812339794834585","lat":"35.16479","long":"126.9076"},"color":"rgb(223,137,255)","size":18.5},{"label":"보성역","x":-178.46136474609375,"y":627.3125610351562,"id":"4","attributes":{"Out-Degree":"2","In-Degree":"3","Modularity Class":"1","Degree":"5","Eigenvector Centrality":"0.2644529283508224","lat":"34.76644","long":"127.0804"},"color":"rgb(223,137,255)","size":18.5},{"label":"천안아산역","x":419.9595642089844,"y":-442.4259033203125,"id":"97","attributes":{"Out-Degree":"1","In-Degree":"1","Modularity Class":"0","Degree":"2","Eigenvector Centrality":"0.019276455261267776","lat":"36.79438","long":"127.1045"},"color":"rgb(76,70,62)","size":18.5},{"label":"대전역","x":94.75025177001953,"y":-49.822654724121094,"id":"16","attributes":{"Out-Degree":"4","In-Degree":"3","Modularity Class":"0","Degree":"7","Eigenvector Centrality":"0.30419340957468355","lat":"36.33232","long":"127.43226"},"color":"rgb(76,70,62)","size":18.5},{"label":"민둥산역","x":62.77009201049805,"y":-1226.52734375,"id":"70","attributes":{"Out-Degree":"1","In-Degree":"0","Modularity Class":"2","Degree":"1","Eigenvector Centrality":"0.0","lat":"37.24364","long":"128.77364"},"color":"rgb(115,192,0)","size":18.5},{"label":"여천역","x":12.856643676757812,"y":855.4260864257812,"id":"123","attributes":{"Out-Degree":"0","In-Degree":"1","Modularity Class":"1","Degree":"1","Eigenvector Centrality":"0.1335332578363182","lat":"34.77946","long":"127.66445"},"color":"rgb(223,137,255)","size":18.5},{"label":"춘천역","x":589.8460693359375,"y":742.1416625976562,"id":"108","attributes":{"Out-Degree":"1","In-Degree":"1","Modularity Class":"1","Degree":"2","Eigenvector Centrality":"0.0018698105584677167","lat":"37.88471","long":"127.71756"},"color":"rgb(223,137,255)","size":18.5},{"label":"점촌역","x":-211.78289794921875,"y":-848.7857666015625,"id":"75","attributes":{"Out-Degree":"1","In-Degree":"1","Modularity Class":"4","Degree":"2","Eigenvector Centrality":"0.078416789813483","lat":"36.5955","long":"128.20328"},"color":"rgb(255,85,132)","size":18.5},{"label":"신경주역","x":751.9715576171875,"y":-442.6883239746094,"id":"80","attributes":{"Out-Degree":"4","In-Degree":"2","Modularity Class":"0","Degree":"6","Eigenvector Centrality":"0.022459555362442703","lat":"35.79827","long":"129.13896"},"color":"rgb(76,70,62)","size":18.5},{"label":"서대전역","x":235.6788330078125,"y":600.5586547851562,"id":"51","attributes":{"Out-Degree":"4","In-Degree":"3","Modularity Class":"1","Degree":"7","Eigenvector Centrality":"0.14570202989180786","lat":"36.32248","long":"127.40312"},"color":"rgb(223,137,255)","size":18.5},{"label":"제천역","x":447.2422790527344,"y":-1017.885009765625,"id":"27","attributes":{"Out-Degree":"8","In-Degree":"6","Modularity Class":"2","Degree":"14","Eigenvector Centrality":"0.34910106630069165","lat":"37.12707","long":"128.20596"},"color":"rgb(115,192,0)","size":18.5},{"label":"광주송정역(경유)","x":-75.95619201660156,"y":974.4702758789062,"id":"84","attributes":{"Out-Degree":"1","In-Degree":"1","Modularity Class":"1","Degree":"2","Eigenvector Centrality":"0.007647978269320948","lat":"35.13771","long":"126.79011"},"color":"rgb(223,137,255)","size":18.5},{"label":"벌교역","x":-271.8411865234375,"y":639.97607421875,"id":"87","attributes":{"Out-Degree":"1","In-Degree":"1","Modularity Class":"1","Degree":"2","Eigenvector Centrality":"0.09564982279589714","lat":"34.84219","long":"127.34493"},"color":"rgb(223,137,255)","size":18.5},{"label":"수원역(경유)","x":319.5408630371094,"y":-221.0181884765625,"id":"111","attributes":{"Out-Degree":"1","In-Degree":"1","Modularity Class":"0","Degree":"2","Eigenvector Centrality":"0.009215516151476135","lat":"37.26796","long":"127.00013"},"color":"rgb(76,70,62)","size":18.5},{"label":"철암역","x":19873.63671875,"y":25781.25,"id":"102","attributes":{"Out-Degree":"1","In-Degree":"0","Modularity Class":"7","Degree":"1","Eigenvector Centrality":"0.0","lat":"37.11303","long":"129.03663"},"color":"rgb(211,179,176)","size":18.5},{"label":"진주역","x":-217.488525390625,"y":-84.45752716064453,"id":"31","attributes":{"Out-Degree":"3","In-Degree":"3","Modularity Class":"6","Degree":"6","Eigenvector Centrality":"0.3862987779335669","lat":"35.15012","long":"128.11835"},"color":"rgb(0,196,255)","size":18.5},{"label":"장사역","x":1310.9986572265625,"y":-508.2771911621094,"id":"78","attributes":{"Out-Degree":"1","In-Degree":"0","Modularity Class":"0","Degree":"1","Eigenvector Centrality":"0.0","lat":"36.28414","long":"129.36914"},"color":"rgb(76,70,62)","size":18.5},{"label":"청량리역(경유)","x":563.1089477539062,"y":-701.8776245117188,"id":"13","attributes":{"Out-Degree":"2","In-Degree":"2","Modularity Class":"2","Degree":"4","Eigenvector Centrality":"0.15327278116438847","lat":"37.58182","long":"127.04757"},"color":"rgb(115,192,0)","size":18.5},{"label":"정선역","x":490.23431396484375,"y":-1304.712158203125,"id":"106","attributes":{"Out-Degree":"1","In-Degree":"0","Modularity Class":"2","Degree":"1","Eigenvector Centrality":"0.0","lat":"37.38796","long":"128.67265"},"color":"rgb(115,192,0)","size":18.5},{"label":"동두천역(경유)","x":25781.25,"y":20254.578125,"id":"114","attributes":{"Out-Degree":"0","In-Degree":"1","Modularity Class":"3","Degree":"1","Eigenvector Centrality":"0.0031831001011749273","lat":"37.92799","long":"127.05602"},"color":"rgb(0,189,148)","size":18.5},{"label":"부전역(경유)","x":-378.2922668457031,"y":-7.447418212890625,"id":"2","attributes":{"Out-Degree":"1","In-Degree":"1","Modularity Class":"5","Degree":"2","Eigenvector Centrality":"0.019683688156826175","lat":"35.16211","long":"129.06207"},"color":"rgb(255,136,5)","size":18.5},{"label":"묵호역(경유)","x":57.1368408203125,"y":-995.6455078125,"id":"98","attributes":{"Out-Degree":"2","In-Degree":"2","Modularity Class":"2","Degree":"4","Eigenvector Centrality":"0.1489171716597057","lat":"37.54615","long":"129.10766"},"color":"rgb(115,192,0)","size":18.5},{"label":"신탄진역(경유)","x":-454.4328308105469,"y":113.2509536743164,"id":"20","attributes":{"Out-Degree":"1","In-Degree":"1","Modularity Class":"1","Degree":"2","Eigenvector Centrality":"0.07746652920227394","lat":"36.44855","long":"127.4285"},"color":"rgb(223,137,255)","size":18.5},{"label":"곡성역","x":-73.56514739990234,"y":689.723876953125,"id":"69","attributes":{"Out-Degree":"1","In-Degree":"1","Modularity Class":"1","Degree":"2","Eigenvector Centrality":"0.05945311521447837","lat":"35.28364","long":"127.30355"},"color":"rgb(223,137,255)","size":18.5},{"label":"동두천역","x":25781.25,"y":20321.244140625,"id":"67","attributes":{"Out-Degree":"1","In-Degree":"0","Modularity Class":"3","Degree":"1","Eigenvector Centrality":"0.0","lat":"37.92799","long":"127.05602"},"color":"rgb(0,189,148)","size":18.5},{"label":"구례구역","x":106.635498046875,"y":672.42431640625,"id":"7","attributes":{"Out-Degree":"1","In-Degree":"1","Modularity Class":"1","Degree":"2","Eigenvector Centrality":"0.13080145925400885","lat":"35.16329","long":"127.45348"},"color":"rgb(223,137,255)","size":18.5},{"label":"부산역","x":-371.63800048828125,"y":-307.43548583984375,"id":"21","attributes":{"Out-Degree":"6","In-Degree":"6","Modularity Class":"6","Degree":"12","Eigenvector Centrality":"0.3437089610363461","lat":"35.11578","long":"129.04265"},"color":"rgb(0,196,255)","size":18.5},{"label":"하동역","x":-495.4672546386719,"y":456.9900207519531,"id":"88","attributes":{"Out-Degree":"1","In-Degree":"1","Modularity Class":"5","Degree":"2","Eigenvector Centrality":"0.16449685205574935","lat":"35.0635","long":"127.76171"},"color":"rgb(255,136,5)","size":18.5},{"label":"울산역","x":-193.65367126464844,"y":-314.1463623046875,"id":"82","attributes":{"Out-Degree":"2","In-Degree":"2","Modularity Class":"6","Degree":"4","Eigenvector Centrality":"0.29497789342320757","lat":"35.55131","long":"129.13793"},"color":"rgb(0,196,255)","size":18.5},{"label":"도계역","x":19897.560546875,"y":25781.25,"id":"121","attributes":{"Out-Degree":"0","In-Degree":"1","Modularity Class":"7","Degree":"1","Eigenvector Centrality":"0.0018698105584677167","lat":"37.22935","long":"129.04391"},"color":"rgb(211,179,176)","size":18.5},{"label":"화본역","x":160.89816284179688,"y":-616.8587036132812,"id":"103","attributes":{"Out-Degree":"1","In-Degree":"1","Modularity Class":"2","Degree":"2","Eigenvector Centrality":"0.08228162764390057","lat":"36.12668","long":"128.69505"},"color":"rgb(115,192,0)","size":18.5},{"label":"익산역(경유)","x":51.61362838745117,"y":591.613525390625,"id":"17","attributes":{"Out-Degree":"8","In-Degree":"13","Modularity Class":"1","Degree":"21","Eigenvector Centrality":"0.723418868869486","lat":"35.94091","long":"126.9458"},"color":"rgb(223,137,255)","size":18.5},{"label":"정읍역","x":184.97607421875,"y":815.5005493164062,"id":"58","attributes":{"Out-Degree":"1","In-Degree":"1","Modularity Class":"1","Degree":"2","Eigenvector Centrality":"0.07904900727318231","lat":"35.57577","long":"126.84192"},"color":"rgb(223,137,255)","size":18.5},{"label":"가평역","x":648.8281860351562,"y":-171.60113525390625,"id":"14","attributes":{"Out-Degree":"2","In-Degree":"2","Modularity Class":"0","Degree":"4","Eigenvector Centrality":"0.0489099285585568","lat":"37.81388","long":"127.51143"},"color":"rgb(76,70,62)","size":18.5},{"label":"수원역","x":61.01278305053711,"y":184.9495086669922,"id":"62","attributes":{"Out-Degree":"6","In-Degree":"4","Modularity Class":"1","Degree":"10","Eigenvector Centrality":"0.47103964952869926","lat":"37.26796","long":"127.00013"},"color":"rgb(223,137,255)","size":18.5},{"label":"광명역","x":575.2340698242188,"y":10.046588897705078,"id":"112","attributes":{"Out-Degree":"1","In-Degree":"1","Modularity Class":"0","Degree":"2","Eigenvector Centrality":"0.00803435713499688","lat":"37.498159","long":"129.123741"},"color":"rgb(76,70,62)","size":18.5},{"label":"서대전역(경유)","x":90.7131118774414,"y":854.7954711914062,"id":"43","attributes":{"Out-Degree":"1","In-Degree":"0","Modularity Class":"1","Degree":"1","Eigenvector Centrality":"0.0","lat":"36.32248","long":"127.40312"},"color":"rgb(223,137,255)","size":18.5},{"label":"삼량진역(경유)","x":-141.0895538330078,"y":-173.70159912109375,"id":"52","attributes":{"Out-Degree":"2","In-Degree":"1","Modularity Class":"6","Degree":"3","Eigenvector Centrality":"0.18698105584677166","lat":"35.39903","long":"128.84387"},"color":"rgb(0,196,255)","size":18.5},{"label":"청주역","x":408.44610595703125,"y":-65.82416534423828,"id":"119","attributes":{"Out-Degree":"0","In-Degree":"1","Modularity Class":"1","Degree":"1","Eigenvector Centrality":"0.04645513846754151","lat":"36.6471","long":"127.39234"},"color":"rgb(223,137,255)","size":18.5},{"label":"사상역","x":-1150.45654296875,"y":-683.8907470703125,"id":"90","attributes":{"Out-Degree":"1","In-Degree":"1","Modularity Class":"6","Degree":"2","Eigenvector Centrality":"0.0018698105584677167","lat":"35.16249","long":"128.989"},"color":"rgb(0,196,255)","size":18.5},{"label":"순천역(경유)","x":-56.63250732421875,"y":332.5161437988281,"id":"5","attributes":{"Out-Degree":"5","In-Degree":"5","Modularity Class":"1","Degree":"10","Eigenvector Centrality":"0.32250432963273756","lat":"34.945789","long":"127.50326"},"color":"rgb(223,137,255)","size":18.5},{"label":"호계역(경유)","x":-226.34449768066406,"y":-274.46893310546875,"id":"64","attributes":{"Out-Degree":"1","In-Degree":"1","Modularity Class":"5","Degree":"2","Eigenvector Centrality":"0.054611685644679116","lat":"35.62211","long":"129.35408"},"color":"rgb(255,136,5)","size":18.5},{"label":"창원중앙역(경유)","x":-405.718017578125,"y":-697.820556640625,"id":"99","attributes":{"Out-Degree":"2","In-Degree":"0","Modularity Class":"6","Degree":"2","Eigenvector Centrality":"0.0","lat":"35.24237","long":"128.70119"},"color":"rgb(0,196,255)","size":18.5},{"label":"서울역","x":-23.511384963989258,"y":-272.7706604003906,"id":"24","attributes":{"Out-Degree":"7","In-Degree":"8","Modularity Class":"6","Degree":"15","Eigenvector Centrality":"0.5901398917793182","lat":"37.55344","long":"126.96971"},"color":"rgb(0,196,255)","size":18.5},{"label":"태백역","x":351.4596862792969,"y":-1148.3485107421875,"id":"28","attributes":{"Out-Degree":"5","In-Degree":"5","Modularity Class":"2","Degree":"10","Eigenvector Centrality":"0.3342897018206077","lat":"37.17606","long":"128.98423"},"color":"rgb(115,192,0)","size":18.5},{"label":"동해역(경유)","x":-7.351159572601318,"y":-835.8865356445312,"id":"71","attributes":{"Out-Degree":"3","In-Degree":"2","Modularity Class":"6","Degree":"5","Eigenvector Centrality":"0.2699941245181196","lat":"37.498159","long":"129.123741"},"color":"rgb(0,196,255)","size":18.5},{"label":"상주역","x":-643.2341918945312,"y":-914.108154296875,"id":"120","attributes":{"Out-Degree":"0","In-Degree":"1","Modularity Class":"4","Degree":"1","Eigenvector Centrality":"0.008827309847702724","lat":"36.41031","long":"128.16377"},"color":"rgb(255,85,132)","size":18.5},{"label":"영천역(경유)","x":38.0883674621582,"y":-664.5675659179688,"id":"36","attributes":{"Out-Degree":"3","In-Degree":"1","Modularity Class":"6","Degree":"4","Eigenvector Centrality":"0.18698105584677166","lat":"35.95894","long":"128.93892"},"color":"rgb(0,196,255)","size":18.5},{"label":"군산역","x":161.13504028320312,"y":529.335693359375,"id":"44","attributes":{"Out-Degree":"4","In-Degree":"5","Modularity Class":"1","Degree":"9","Eigenvector Centrality":"0.3477390436335745","lat":"35.9987","long":"126.75977"},"color":"rgb(223,137,255)","size":18.5},{"label":"옥수역","x":715.460205078125,"y":875.0135498046875,"id":"107","attributes":{"Out-Degree":"1","In-Degree":"0","Modularity Class":"1","Degree":"1","Eigenvector Centrality":"0.0","lat":"37.54077","long":"127.01915"},"color":"rgb(223,137,255)","size":18.5},{"label":"밀양역","x":-791.87451171875,"y":-567.6531982421875,"id":"85","attributes":{"Out-Degree":"2","In-Degree":"2","Modularity Class":"6","Degree":"4","Eigenvector Centrality":"0.06822933900752358","lat":"35.47485","long":"128.77142"},"color":"rgb(0,196,255)","size":18.5},{"label":"영천역","x":-341.9847412109375,"y":-864.2676391601562,"id":"60","attributes":{"Out-Degree":"1","In-Degree":"1","Modularity Class":"6","Degree":"2","Eigenvector Centrality":"0.09538268512188769","lat":"35.95888","long":"128.93898"},"color":"rgb(0,196,255)","size":18.5},{"label":"승부역","x":449.73785400390625,"y":-1547.0704345703125,"id":"81","attributes":{"Out-Degree":"1","In-Degree":"0","Modularity Class":"2","Degree":"1","Eigenvector Centrality":"0.0","lat":"36.99366","long":"129.0839"},"color":"rgb(115,192,0)","size":18.5},{"label":"민둥산역(경유)","x":525.5706787109375,"y":-1283.404052734375,"id":"116","attributes":{"Out-Degree":"0","In-Degree":"1","Modularity Class":"2","Degree":"1","Eigenvector Centrality":"0.07806051136312103","lat":"37.24364","long":"128.77364"},"color":"rgb(115,192,0)","size":18.5},{"label":"밀양역(경유)","x":-491.5633850097656,"y":-305.2103576660156,"id":"22","attributes":{"Out-Degree":"2","In-Degree":"2","Modularity Class":"6","Degree":"4","Eigenvector Centrality":"0.1347047339098555","lat":"35.47485","long":"128.77142"},"color":"rgb(0,196,255)","size":18.5},{"label":"홍성역","x":51.712528228759766,"y":854.3349609375,"id":"34","attributes":{"Out-Degree":"1","In-Degree":"0","Modularity Class":"1","Degree":"1","Eigenvector Centrality":"0.0","lat":"36.59928","long":"126.67796"},"color":"rgb(223,137,255)","size":18.5},{"label":"대전역(경유)","x":152.02694702148438,"y":-351.59283447265625,"id":"8","attributes":{"Out-Degree":"2","In-Degree":"3","Modularity Class":"6","Degree":"5","Eigenvector Centrality":"0.32581687223577743","lat":"36.33232","long":"127.43226"},"color":"rgb(0,196,255)","size":18.5},{"label":"청평역","x":407.3772277832031,"y":493.650146484375,"id":"30","attributes":{"Out-Degree":"1","In-Degree":"1","Modularity Class":"1","Degree":"2","Eigenvector Centrality":"0.09765344591390779","lat":"37.73625","long":"127.4268"},"color":"rgb(223,137,255)","size":18.5},{"label":"영월역","x":380.9699401855469,"y":-1082.1357421875,"id":"46","attributes":{"Out-Degree":"8","In-Degree":"6","Modularity Class":"2","Degree":"14","Eigenvector Centrality":"0.4201236715283474","lat":"37.18235","long":"128.48077"},"color":"rgb(115,192,0)","size":18.5},{"label":"강릉역","x":256.0718078613281,"y":-828.078369140625,"id":"53","attributes":{"Out-Degree":"9","In-Degree":"6","Modularity Class":"2","Degree":"15","Eigenvector Centrality":"0.4532148894721225","lat":"37.76452","long":"128.8994"},"color":"rgb(115,192,0)","size":18.5},{"label":"포항역","x":1154.0919189453125,"y":-488.806884765625,"id":"79","attributes":{"Out-Degree":"1","In-Degree":"1","Modularity Class":"0","Degree":"2","Eigenvector Centrality":"0.0018698105584677167","lat":"36.07123","long":"129.34268"},"color":"rgb(76,70,62)","size":18.5},{"label":"장항역","x":360.7100830078125,"y":588.5775146484375,"id":"48","attributes":{"Out-Degree":"1","In-Degree":"1","Modularity Class":"1","Degree":"2","Eigenvector Centrality":"0.09765344591390779","lat":"36.04003","long":"126.71538"},"color":"rgb(223,137,255)","size":18.5},{"label":"순천역","x":-135.23373413085938,"y":398.0856018066406,"id":"3","attributes":{"Out-Degree":"12","In-Degree":"14","Modularity Class":"1","Degree":"26","Eigenvector Centrality":"0.9067999002866167","lat":"34.945789","long":"127.50326"},"color":"rgb(223,137,255)","size":18.5},{"label":"청량리역","x":386.97528076171875,"y":-883.5696411132812,"id":"33","attributes":{"Out-Degree":"6","In-Degree":"7","Modularity Class":"2","Degree":"13","Eigenvector Centrality":"0.43409951105853783","lat":"37.58182","long":"127.04757"},"color":"rgb(115,192,0)","size":18.5},{"label":"함열역","x":319.103759765625,"y":661.8554077148438,"id":"109","attributes":{"Out-Degree":"1","In-Degree":"1","Modularity Class":"1","Degree":"2","Eigenvector Centrality":"0.12181805397271969","lat":"36.08017","long":"126.95657"},"color":"rgb(223,137,255)","size":18.5},{"label":"영등포역","x":-425.5382385253906,"y":632.7805786132812,"id":"115","attributes":{"Out-Degree":"0","In-Degree":"1","Modularity Class":"1","Degree":"1","Eigenvector Centrality":"0.07746652920227394","lat":"37.51564","long":"126.90763"},"color":"rgb(223,137,255)","size":18.5},{"label":"광주송정역","x":-115.57865905761719,"y":541.140869140625,"id":"18","attributes":{"Out-Degree":"7","In-Degree":"6","Modularity Class":"1","Degree":"13","Eigenvector Centrality":"0.5284788344471784","lat":"35.13771","long":"126.79011"},"color":"rgb(223,137,255)","size":18.5},{"label":"충주역","x":325.0694885253906,"y":-1017.0631713867188,"id":"55","attributes":{"Out-Degree":"1","In-Degree":"0","Modularity Class":"2","Degree":"1","Eigenvector Centrality":"0.0","lat":"36.97597","long":"127.90917"},"color":"rgb(115,192,0)","size":18.5},{"label":"동대구역","x":-61.216312408447266,"y":-425.4847106933594,"id":"0","attributes":{"Out-Degree":"16","In-Degree":"18","Modularity Class":"6","Degree":"34","Eigenvector Centrality":"1.0","lat":"35.87905","long":"128.62683"},"color":"rgb(0,196,255)","size":18.5},{"label":"동대구역(경유)","x":139.12051391601562,"y":-244.11508178710938,"id":"39","attributes":{"Out-Degree":"3","In-Degree":"3","Modularity Class":"1","Degree":"6","Eigenvector Centrality":"0.19291062095133257","lat":"35.87905","long":"128.62683"},"color":"rgb(223,137,255)","size":18.5},{"label":"조치원역(경유)","x":264.78570556640625,"y":-92.4408187866211,"id":"41","attributes":{"Out-Degree":"3","In-Degree":"3","Modularity Class":"1","Degree":"6","Eigenvector Centrality":"0.2546367038215536","lat":"36.601","long":"127.29719"},"color":"rgb(223,137,255)","size":18.5},{"label":"대천역","x":403.6187438964844,"y":444.9701232910156,"id":"105","attributes":{"Out-Degree":"2","In-Degree":"2","Modularity Class":"1","Degree":"4","Eigenvector Centrality":"0.09121703869242659","lat":"36.34186","long":"126.58699"},"color":"rgb(223,137,255)","size":18.5},{"label":"천안역","x":202.36074829101562,"y":189.7326202392578,"id":"59","attributes":{"Out-Degree":"2","In-Degree":"3","Modularity Class":"1","Degree":"5","Eigenvector Centrality":"0.20974973555700524","lat":"36.81028","long":"127.14684"},"color":"rgb(223,137,255)","size":18.5},{"label":"부천역","x":-362.1097106933594,"y":550.7576904296875,"id":"73","attributes":{"Out-Degree":"1","In-Degree":"0","Modularity Class":"1","Degree":"1","Eigenvector Centrality":"0.0","lat":"37.48482","long":"126.78286"},"color":"rgb(223,137,255)","size":18.5},{"label":"창원중앙역","x":119.64678192138672,"y":138.72930908203125,"id":"100","attributes":{"Out-Degree":"0","In-Degree":"3","Modularity Class":"1","Degree":"3","Eigenvector Centrality":"0.21786068996045588","lat":"35.24237","long":"128.70119"},"color":"rgb(223,137,255)","size":18.5},{"label":"남춘천역","x":505.8814697265625,"y":220.1756591796875,"id":"110","attributes":{"Out-Degree":"1","In-Degree":"1","Modularity Class":"0","Degree":"2","Eigenvector Centrality":"0.09765344591390779","lat":"37.86412","long":"127.72377"},"color":"rgb(76,70,62)","size":18.5},{"label":"신해운대역","x":-342.16436767578125,"y":-471.6813659667969,"id":"1","attributes":{"Out-Degree":"4","In-Degree":"1","Modularity Class":"5","Degree":"5","Eigenvector Centrality":"0.09538268512188769","lat":"35.18155","long":"129.17648"},"color":"rgb(255,136,5)","size":18.5},{"label":"용산역(경유)","x":493.7861633300781,"y":-31.413185119628906,"id":"15","attributes":{"Out-Degree":"2","In-Degree":"2","Modularity Class":"0","Degree":"4","Eigenvector Centrality":"0.030943619998708424","lat":"37.53019","long":"126.96514"},"color":"rgb(76,70,62)","size":18.5},{"label":"진주역(경유)","x":-547.837646484375,"y":361.1260986328125,"id":"63","attributes":{"Out-Degree":"1","In-Degree":"1","Modularity Class":"5","Degree":"2","Eigenvector Centrality":"0.03021569468915727","lat":"35.15012","long":"128.11835"},"color":"rgb(255,136,5)","size":18.5},{"label":"영주역","x":258.28790283203125,"y":-677.107666015625,"id":"38","attributes":{"Out-Degree":"5","In-Degree":"5","Modularity Class":"2","Degree":"10","Eigenvector Centrality":"0.4185919452630606","lat":"36.81094","long":"128.62558"},"color":"rgb(115,192,0)","size":18.5},{"label":"묵호역","x":168.0950164794922,"y":-924.60986328125,"id":"47","attributes":{"Out-Degree":"5","In-Degree":"8","Modularity Class":"2","Degree":"13","Eigenvector Centrality":"0.6468626521209765","lat":"37.54615","long":"129.10766"},"color":"rgb(115,192,0)","size":18.5},{"label":"만종역(경유)","x":509.5898742675781,"y":-945.3549194335938,"id":"54","attributes":{"Out-Degree":"1","In-Degree":"1","Modularity Class":"2","Degree":"2","Eigenvector Centrality":"0.08301306867134782","lat":"37.35395","long":"127.89311"},"color":"rgb(115,192,0)","size":18.5},{"label":"풍기역","x":578.2957763671875,"y":-862.2048950195312,"id":"45","attributes":{"Out-Degree":"2","In-Degree":"3","Modularity Class":"2","Degree":"5","Eigenvector Centrality":"0.12928158679548107","lat":"36.87406","long":"128.52347"},"color":"rgb(115,192,0)","size":18.5},{"label":"청도역","x":-736.8560791015625,"y":-617.768310546875,"id":"91","attributes":{"Out-Degree":"1","In-Degree":"1","Modularity Class":"6","Degree":"2","Eigenvector Centrality":"0.015683072040554056","lat":"35.63985","long":"128.74617"},"color":"rgb(0,196,255)","size":18.5},{"label":"서울역(경유)","x":667.2042846679688,"y":-475.2724914550781,"id":"93","attributes":{"Out-Degree":"3","In-Degree":"2","Modularity Class":"0","Degree":"5","Eigenvector Centrality":"0.09104742580634471","lat":"37.55344","long":"126.96971"},"color":"rgb(76,70,62)","size":18.5},{"label":"익산역","x":193.07864379882812,"y":646.6605224609375,"id":"42","attributes":{"Out-Degree":"6","In-Degree":"4","Modularity Class":"1","Degree":"10","Eigenvector Centrality":"0.4452397632308239","lat":"35.94091","long":"126.9458"},"color":"rgb(223,137,255)","size":18.5},{"label":"안동역","x":55.621158599853516,"y":-770.5953369140625,"id":"37","attributes":{"Out-Degree":"7","In-Degree":"7","Modularity Class":"2","Degree":"14","Eigenvector Centrality":"0.27493279630593986","lat":"36.56306","long":"128.73274"},"color":"rgb(115,192,0)","size":18.5},{"label":"상천역","x":768.996337890625,"y":-199.2611083984375,"id":"122","attributes":{"Out-Degree":"0","In-Degree":"1","Modularity Class":"1","Degree":"1","Eigenvector Centrality":"0.018775588579464056","lat":"37.76998","long":"127.45362"},"color":"rgb(223,137,255)","size":18.5},{"label":"부전역","x":-292.0653991699219,"y":156.23553466796875,"id":"57","attributes":{"Out-Degree":"4","In-Degree":"5","Modularity Class":"5","Degree":"9","Eigenvector Centrality":"0.24353183113419427","lat":"35.16211","long":"129.06207"},"color":"rgb(255,136,5)","size":18.5},{"label":"나주역","x":-287.46441650390625,"y":510.9287109375,"id":"86","attributes":{"Out-Degree":"2","In-Degree":"2","Modularity Class":"1","Degree":"4","Eigenvector Centrality":"0.1612411404266633","lat":"35.01393","long":"126.71748"},"color":"rgb(223,137,255)","size":18.5},{"label":"황간역","x":-580.718994140625,"y":-607.1616821289062,"id":"101","attributes":{"Out-Degree":"1","In-Degree":"1","Modularity Class":"4","Degree":"2","Eigenvector Centrality":"0.06504623890634864","lat":"36.22431","long":"127.91225"},"color":"rgb(255,85,132)","size":18.5},{"label":"포항역(경유)","x":220.71121215820312,"y":-436.257080078125,"id":"77","attributes":{"Out-Degree":"1","In-Degree":"1","Modularity Class":"6","Degree":"2","Eigenvector Centrality":"0.18698105584677166","lat":"36.07123","long":"129.34268"},"color":"rgb(0,196,255)","size":18.5},{"label":"단양역","x":447.7464294433594,"y":-834.430908203125,"id":"12","attributes":{"Out-Degree":"4","In-Degree":"6","Modularity Class":"2","Degree":"10","Eigenvector Centrality":"0.39433614174539866","lat":"36.97309","long":"128.34374"},"color":"rgb(115,192,0)","size":18.5},{"label":"목포역","x":-231.5685577392578,"y":465.3210754394531,"id":"19","attributes":{"Out-Degree":"5","In-Degree":"5","Modularity Class":"1","Degree":"10","Eigenvector Centrality":"0.4263481322161119","lat":"34.79213","long":"126.38764"},"color":"rgb(223,137,255)","size":18.5},{"label":"여수엑스포역(경유)","x":-111.8670654296875,"y":621.3548583984375,"id":"72","attributes":{"Out-Degree":"1","In-Degree":"1","Modularity Class":"1","Degree":"2","Eigenvector Centrality":"0.13080145925400885","lat":"34.75494","long":"127.74913"},"color":"rgb(223,137,255)","size":18.5},{"label":"광주역","x":-12.29498291015625,"y":650.3159790039062,"id":"35","attributes":{"Out-Degree":"3","In-Degree":"3","Modularity Class":"1","Degree":"6","Eigenvector Centrality":"0.3082320879053973","lat":"35.16479","long":"126.9076"},"color":"rgb(223,137,255)","size":18.5},{"label":"김천역(경유)","x":-484.9691467285156,"y":-786.8622436523438,"id":"76","attributes":{"Out-Degree":"2","In-Degree":"2","Modularity Class":"4","Degree":"4","Eigenvector Centrality":"0.029818968894684692","lat":"36.12372","long":"128.11504"},"color":"rgb(255,85,132)","size":18.5},{"label":"동해역","x":394.857666015625,"y":-1353.644287109375,"id":"94","attributes":{"Out-Degree":"1","In-Degree":"3","Modularity Class":"2","Degree":"4","Eigenvector Centrality":"0.0915999216159024","lat":"37.498159","long":"129.123741"},"color":"rgb(115,192,0)","size":18.5}],"edges":[{"source":"41","target":"6","id":"71","attributes":{"enddate":"2017-8-4","startdate":"2017-7-31"},"color":"rgb(223,137,255)","size":1.0},{"source":"58","target":"17","id":"137","attributes":{"enddate":"2017-12-14","startdate":"2017-12-8"},"color":"rgb(223,137,255)","size":1.0},{"source":"11","target":"0","id":"40","attributes":{"enddate":"2017-6-7","startdate":"2017-6-1"},"color":"rgb(57,194,127)","size":1.0},{"source":"33","target":"37","id":"169","attributes":{"enddate":"2018-1-14","startdate":"2018-1-6"},"color":"rgb(115,192,0)","size":1.0},{"source":"29","target":"30","id":"42","attributes":{"enddate":"2017-7-2","startdate":"2017-6-30"},"color":"rgb(223,137,255)","size":1.0},{"source":"37","target":"64","id":"170","attributes":{"enddate":"2018-1-14","startdate":"2018-1-6"},"color":"rgb(185,164,2)","size":1.0},{"source":"15","target":"16","id":"17","attributes":{"enddate":"2017-2-21","startdate":"2017-2-15"},"color":"rgb(76,70,62)","size":1.0},{"source":"1","target":"49","id":"100","attributes":{"enddate":"2017-8-28","startdate":"2017-8-24"},"color":"rgb(255,136,5)","size":1.0},{"source":"23","target":"33","id":"28","attributes":{"enddate":"2017-2-14","startdate":"2017-2-8"},"color":"rgb(115,192,0)","size":1.0},{"source":"5","target":"19","id":"48","attributes":{"enddate":"2017-6-30","startdate":"2017-6-25"},"color":"rgb(223,137,255)","size":1.0},{"source":"0","target":"56","id":"123","attributes":{"enddate":"2017-12-21","startdate":"2017-12-15"},"color":"rgb(127,166,130)","size":1.0},{"source":"60","target":"61","id":"143","attributes":{"enddate":"2017-12-14","startdate":"2017-12-8"},"color":"rgb(0,196,255)","size":1.0},{"source":"42","target":"6","id":"73","attributes":{"enddate":"2017-8-4","startdate":"2017-7-31"},"color":"rgb(223,137,255)","size":1.0},{"source":"40","target":"3","id":"134","attributes":{"enddate":"2017-12-14","startdate":"2017-12-8"},"color":"rgb(111,166,255)","size":1.0},{"source":"3","target":"40","id":"65","attributes":{"enddate":"2017-7-30","startdate":"2017-7-26"},"color":"rgb(111,166,255)","size":1.0},{"source":"49","target":"50","id":"101","attributes":{"enddate":"2017-8-28","startdate":"2017-8-24"},"color":"rgb(127,166,130)","size":1.0},{"source":"37","target":"11","id":"145","attributes":{"enddate":"2017-12-14","startdate":"2017-12-8"},"color":"rgb(115,192,0)","size":1.0},{"source":"0","target":"8","id":"8","attributes":{"enddate":"2017-7-14","startdate":"2017-7-10"},"color":"rgb(0,196,255)","size":2.0},{"source":"36","target":"47","id":"92","attributes":{"enddate":"2017-8-26","startdate":"2017-8-20"},"color":"rgb(57,194,127)","size":1.0},{"source":"6","target":"7","id":"6","attributes":{"enddate":"2017-1-23","startdate":"2017-1-19"},"color":"rgb(223,137,255)","size":1.0},{"source":"20","target":"21","id":"22","attributes":{"enddate":"2017-2-14","startdate":"2017-2-8"},"color":"rgb(111,166,255)","size":1.0},{"source":"3","target":"29","id":"106","attributes":{"enddate":"2017-8-18","startdate":"2017-8-14"},"color":"rgb(223,137,255)","size":1.0},{"source":"10","target":"37","id":"90","attributes":{"enddate":"2017-7-14","startdate":"2017-7-10"},"color":"rgb(115,192,0)","size":1.0},{"source":"61","target":"37","id":"144","attributes":{"enddate":"2017-12-14","startdate":"2017-12-8"},"color":"rgb(57,194,127)","size":1.0},{"source":"33","target":"12","id":"52","attributes":{"enddate":"2017-8-9","startdate":"2017-8-3"},"color":"rgb(115,192,0)","size":2.0},{"source":"54","target":"33","id":"118","attributes":{"enddate":"2017-12-28","startdate":"2017-12-22"},"color":"rgb(115,192,0)","size":1.0},{"source":"50","target":"47","id":"115","attributes":{"enddate":"2017-12-28","startdate":"2017-12-22"},"color":"rgb(57,194,127)","size":1.0},{"source":"11","target":"23","id":"27","attributes":{"enddate":"2017-2-14","startdate":"2017-2-8"},"color":"rgb(115,192,0)","size":1.0},{"source":"16","target":"17","id":"18","attributes":{"enddate":"2017-2-21","startdate":"2017-2-15"},"color":"rgb(149,103,158)","size":1.0},{"source":"44","target":"59","id":"139","attributes":{"enddate":"2017-12-14","startdate":"2017-12-8"},"color":"rgb(223,137,255)","size":1.0},{"source":"50","target":"60","id":"142","attributes":{"enddate":"2017-12-14","startdate":"2017-12-8"},"color":"rgb(0,196,255)","size":1.0},{"source":"6","target":"29","id":"74","attributes":{"enddate":"2017-8-4","startdate":"2017-7-31"},"color":"rgb(223,137,255)","size":1.0},{"source":"64","target":"57","id":"171","attributes":{"enddate":"2018-1-14","startdate":"2018-1-6"},"color":"rgb(255,136,5)","size":1.0},{"source":"21","target":"22","id":"23","attributes":{"enddate":"2017-2-14","startdate":"2017-2-8"},"color":"rgb(0,196,255)","size":1.0},{"source":"24","target":"25","id":"29","attributes":{"enddate":"2017-2-14","startdate":"2017-2-8"},"color":"rgb(111,166,255)","size":1.0},{"source":"22","target":"92","id":"24","attributes":{"enddate":"2017-2-14","startdate":"2017-2-8"},"color":"rgb(0,196,255)","size":1.0},{"source":"34","target":"17","id":"53","attributes":{"enddate":"2017-6-6","startdate":"2017-6-3"},"color":"rgb(223,137,255)","size":1.0},{"source":"30","target":"29","id":"43","attributes":{"enddate":"2017-7-2","startdate":"2017-6-30"},"color":"rgb(223,137,255)","size":1.0},{"source":"29","target":"48","id":"94","attributes":{"enddate":"2017-8-28","startdate":"2017-8-24"},"color":"rgb(223,137,255)","size":1.0},{"source":"10","target":"94","id":"11","attributes":{"enddate":"2017-2-21","startdate":"2017-2-15"},"color":"rgb(115,192,0)","size":1.0},{"source":"31","target":"5","id":"45","attributes":{"enddate":"2017-6-30","startdate":"2017-6-25"},"color":"rgb(111,166,255)","size":1.0},{"source":"6","target":"62","id":"76","attributes":{"enddate":"2017-8-9","startdate":"2017-8-3"},"color":"rgb(223,137,255)","size":1.0},{"source":"44","target":"29","id":"132","attributes":{"enddate":"2018-1-14","startdate":"2018-1-6"},"color":"rgb(223,137,255)","size":2.0},{"source":"29","target":"39","id":"176","attributes":{"enddate":"2018-1-14","startdate":"2018-1-6"},"color":"rgb(223,137,255)","size":1.0},{"source":"8","target":"9","id":"9","attributes":{"enddate":"2017-2-21","startdate":"2017-2-15"},"color":"rgb(57,194,127)","size":1.0},{"source":"19","target":"17","id":"49","attributes":{"enddate":"2017-6-30","startdate":"2017-6-25"},"color":"rgb(223,137,255)","size":1.0},{"source":"12","target":"13","id":"14","attributes":{"enddate":"2017-2-21","startdate":"2017-2-15"},"color":"rgb(115,192,0)","size":1.0},{"source":"3","target":"17","id":"173","attributes":{"enddate":"2018-1-14","startdate":"2018-1-6"},"color":"rgb(223,137,255)","size":1.0},{"source":"25","target":"6","id":"30","attributes":{"enddate":"2017-2-14","startdate":"2017-2-8"},"color":"rgb(223,137,255)","size":1.0},{"source":"11","target":"92","id":"122","attributes":{"enddate":"2017-12-21","startdate":"2017-12-15"},"color":"rgb(57,194,127)","size":1.0},{"source":"1","target":"2","id":"1","attributes":{"enddate":"2017-1-23","startdate":"2017-1-19"},"color":"rgb(255,136,5)","size":1.0},{"source":"6","target":"65","id":"51","attributes":{"enddate":"2017-6-30","startdate":"2017-6-25"},"color":"rgb(223,137,255)","size":1.0},{"source":"38","target":"39","id":"62","attributes":{"enddate":"2017-7-30","startdate":"2017-7-26"},"color":"rgb(169,164,127)","size":1.0},{"source":"11","target":"9","id":"12","attributes":{"enddate":"2017-2-21","startdate":"2017-2-15"},"color":"rgb(115,192,0)","size":1.0},{"source":"22","target":"21","id":"113","attributes":{"enddate":"2017-12-28","startdate":"2017-12-22"},"color":"rgb(0,196,255)","size":1.0},{"source":"6","target":"26","id":"83","attributes":{"enddate":"2017-7-14","startdate":"2017-7-10"},"color":"rgb(169,164,127)","size":1.0},{"source":"7","target":"6","id":"7","attributes":{"enddate":"2017-1-23","startdate":"2017-1-19"},"color":"rgb(223,137,255)","size":1.0},{"source":"17","target":"35","id":"32","attributes":{"enddate":"2017-8-28","startdate":"2017-8-24"},"color":"rgb(223,137,255)","size":3.0},{"source":"14","target":"15","id":"16","attributes":{"enddate":"2017-2-21","startdate":"2017-2-15"},"color":"rgb(76,70,62)","size":1.0},{"source":"3","target":"42","id":"135","attributes":{"enddate":"2017-12-14","startdate":"2017-12-8"},"color":"rgb(223,137,255)","size":1.0},{"source":"57","target":"5","id":"125","attributes":{"enddate":"2017-12-21","startdate":"2017-12-15"},"color":"rgb(239,136,130)","size":1.0},{"source":"12","target":"41","id":"70","attributes":{"enddate":"2017-8-4","startdate":"2017-7-31"},"color":"rgb(169,164,127)","size":1.0},{"source":"5","target":"6","id":"5","attributes":{"enddate":"2017-1-23","startdate":"2017-1-19"},"color":"rgb(223,137,255)","size":1.0},{"source":"3","target":"32","id":"58","attributes":{"enddate":"2017-6-6","startdate":"2017-6-3"},"color":"rgb(223,137,255)","size":1.0},{"source":"40","target":"0","id":"66","attributes":{"enddate":"2017-7-30","startdate":"2017-7-26"},"color":"rgb(0,196,255)","size":1.0},{"source":"53","target":"54","id":"117","attributes":{"enddate":"2017-12-28","startdate":"2017-12-22"},"color":"rgb(115,192,0)","size":1.0},{"source":"13","target":"14","id":"15","attributes":{"enddate":"2017-2-21","startdate":"2017-2-15"},"color":"rgb(95,131,31)","size":1.0},{"source":"6","target":"74","id":"36","attributes":{"enddate":"2017-6-7","startdate":"2017-6-1"},"color":"rgb(223,137,255)","size":1.0},{"source":"21","target":"3","id":"34","attributes":{"enddate":"2017-6-7","startdate":"2017-6-1"},"color":"rgb(111,166,255)","size":1.0},{"source":"0","target":"31","id":"109","attributes":{"enddate":"2017-12-28","startdate":"2017-12-22"},"color":"rgb(0,196,255)","size":1.0},{"source":"26","target":"27","id":"37","attributes":{"enddate":"2017-7-14","startdate":"2017-7-10"},"color":"rgb(115,192,0)","size":2.0},{"source":"4","target":"3","id":"57","attributes":{"enddate":"2017-6-6","startdate":"2017-6-3"},"color":"rgb(223,137,255)","size":1.0},{"source":"0","target":"38","id":"68","attributes":{"enddate":"2017-8-4","startdate":"2017-7-31"},"color":"rgb(57,194,127)","size":1.0},{"source":"43","target":"17","id":"79","attributes":{"enddate":"2017-7-14","startdate":"2017-7-10"},"color":"rgb(223,137,255)","size":1.0},{"source":"56","target":"57","id":"124","attributes":{"enddate":"2017-12-21","startdate":"2017-12-15"},"color":"rgb(255,136,5)","size":1.0},{"source":"45","target":"12","id":"86","attributes":{"enddate":"2017-7-14","startdate":"2017-7-10"},"color":"rgb(115,192,0)","size":1.0},{"source":"59","target":"0","id":"140","attributes":{"enddate":"2017-12-14","startdate":"2017-12-8"},"color":"rgb(111,166,255)","size":1.0},{"source":"39","target":"50","id":"177","attributes":{"enddate":"2018-1-14","startdate":"2018-1-6"},"color":"rgb(111,166,255)","size":1.0},{"source":"3","target":"4","id":"3","attributes":{"enddate":"2017-1-23","startdate":"2017-1-19"},"color":"rgb(223,137,255)","size":1.0},{"source":"2","target":"3","id":"2","attributes":{"enddate":"2017-1-23","startdate":"2017-1-19"},"color":"rgb(239,136,130)","size":1.0},{"source":"19","target":"20","id":"21","attributes":{"enddate":"2017-2-14","startdate":"2017-2-8"},"color":"rgb(223,137,255)","size":1.0},{"source":"18","target":"4","id":"56","attributes":{"enddate":"2017-6-6","startdate":"2017-6-3"},"color":"rgb(223,137,255)","size":1.0},{"source":"37","target":"38","id":"61","attributes":{"enddate":"2017-7-30","startdate":"2017-7-26"},"color":"rgb(115,192,0)","size":1.0},{"source":"24","target":"59","id":"103","attributes":{"enddate":"2017-8-18","startdate":"2017-8-14"},"color":"rgb(111,166,255)","size":1.0},{"source":"39","target":"24","id":"63","attributes":{"enddate":"2017-7-30","startdate":"2017-7-26"},"color":"rgb(111,166,255)","size":1.0},{"source":"36","target":"37","id":"60","attributes":{"enddate":"2017-7-30","startdate":"2017-7-26"},"color":"rgb(57,194,127)","size":1.0},{"source":"48","target":"44","id":"95","attributes":{"enddate":"2017-8-28","startdate":"2017-8-24"},"color":"rgb(223,137,255)","size":1.0},{"source":"35","target":"17","id":"130","attributes":{"enddate":"2017-12-21","startdate":"2017-12-15"},"color":"rgb(223,137,255)","size":1.0},{"source":"1","target":"50","id":"114","attributes":{"enddate":"2017-12-28","startdate":"2017-12-22"},"color":"rgb(127,166,130)","size":1.0},{"source":"31","target":"22","id":"112","attributes":{"enddate":"2017-12-28","startdate":"2017-12-22"},"color":"rgb(0,196,255)","size":1.0},{"source":"57","target":"3","id":"172","attributes":{"enddate":"2018-1-14","startdate":"2018-1-6"},"color":"rgb(239,136,130)","size":1.0},{"source":"9","target":"28","id":"10","attributes":{"enddate":"2017-2-21","startdate":"2017-2-15"},"color":"rgb(115,192,0)","size":1.0},{"source":"38","target":"12","id":"69","attributes":{"enddate":"2017-8-4","startdate":"2017-7-31"},"color":"rgb(115,192,0)","size":1.0},{"source":"27","target":"45","id":"85","attributes":{"enddate":"2017-7-14","startdate":"2017-7-10"},"color":"rgb(115,192,0)","size":1.0},{"source":"42","target":"58","id":"136","attributes":{"enddate":"2017-12-14","startdate":"2017-12-8"},"color":"rgb(223,137,255)","size":1.0}]}